[
  {
    "id":1,
    "name":"citayam",
    "lat":-6.4489,
    "lng":106.80247,
    "ele":null,
    "transit":false,
    "comment1":"merah",
    "comment2":"Orange"
  },
  {
    "id":2,
    "name":"bogor",
    "lat":-6.594593,
    "lng":106.790591,
    "ele":null,
    "transit":false,
    "comment1":"merah",
    "comment2":"Orange"
  },
  {
    "id":3,
    "name":"bojong gede",
    "lat":-6.49331,
    "lng":106.79487,
    "ele":null,
    "transit":false,
    "comment1":"merah",
    "comment2":"Orange"
  },
  {
    "id":4,
    "name":"depok baru",
    "lat":-6.39107,
    "lng":106.822,
    "ele":null,
    "transit":false,
    "comment1":"merah",
    "comment2":"Orange"
  },
  {
    "id":5,
    "name":"pondok cina",
    "lat":-6.3695,
    "lng":106.831911,
    "ele":null,
    "transit":false,
    "comment1":"merah",
    "comment2":"Orange"
  },
  {
    "id":6,
    "name":"ui",
    "lat":-6.360799,
    "lng":106.831652,
    "ele":null,
    "transit":false,
    "comment1":"merah",
    "comment2":"Orange"
  },
  {
    "id":7,
    "name":"lenteng agung",
    "lat":-6.330481,
    "lng":106.834762,
    "ele":null,
    "transit":false,
    "comment1":"merah",
    "comment2":"Orange"
  },
  {
    "id":8,
    "name":"tanjung barat",
    "lat":-6.307496,
    "lng":106.839083,
    "ele":null,
    "transit":false,
    "comment1":"merah",
    "comment2":"Orange"
  },
  {
    "id":9,
    "name":"pasar minggu",
    "lat":-6.284361,
    "lng":106.844767,
    "ele":null,
    "transit":false,
    "comment1":"merah",
    "comment2":"Orange"
  },
  {
    "id":10,
    "name":"pasar minggu baru",
    "lat":-6.263189,
    "lng":106.851557,
    "ele":null,
    "transit":false,
    "comment1":"merah",
    "comment2":"Orange"
  },
  {
    "id":11,
    "name":"duren kalibata",
    "lat":-6.255103,
    "lng":106.855197,
    "ele":null,
    "transit":false,
    "comment1":"merah",
    "comment2":"Orange"
  },
  {
    "id":12,
    "name":"cawang",
    "lat":-6.241976,
    "lng":106.858621,
    "ele":null,
    "transit":false,
    "comment1":"merah",
    "comment2":"Orange"
  },
  {
    "id":13,
    "name":"tebet",
    "lat":-6.2264186,
    "lng":106.8581992,
    "ele":null,
    "transit":false,
    "comment1":"merah",
    "comment2":"Orange"
  },
  {
    "id":14,
    "name":"manggarai",
    "lat":-6.210728,
    "lng":106.852073,
    "ele":null,
    "transit":true,
    "comment1":"merah orange biru (T)",
    "comment2":""
  },
  {
    "id":15,
    "name":"cikini",
    "lat":-6.198147,
    "lng":106.841405,
    "ele":null,
    "transit":false,
    "comment1":"merah",
    "comment2":"biru"
  },
  {
    "id":16,
    "name":"gondang dia",
    "lat":-6.186102,
    "lng":106.832705,
    "ele":null,
    "transit":false,
    "comment1":"merah",
    "comment2":"biru"
  },
  {
    "id":17,
    "name":"gambir",
    "lat":-6.175817,
    "lng":106.830699,
    "ele":null,
    "transit":false,
    "comment1":"merah",
    "comment2":"biru"
  },
  {
    "id":18,
    "name":"juanda",
    "lat":-6.166429,
    "lng":106.830438,
    "ele":null,
    "transit":false,
    "comment1":"merah",
    "comment2":"biru"
  },
  {
    "id":19,
    "name":"sawah besar",
    "lat":-6.16124,
    "lng":106.8278,
    "ele":null,
    "transit":false,
    "comment1":"merah",
    "comment2":"biru"
  },
  {
    "id":20,
    "name":"mangga besar",
    "lat":-6.149043,
    "lng":106.82872,
    "ele":null,
    "transit":false,
    "comment1":"merah",
    "comment2":"biru"
  },
  {
    "id":21,
    "name":"jayakarta",
    "lat":-6.14069,
    "lng":106.822761,
    "ele":null,
    "transit":false,
    "comment1":"merah",
    "comment2":"biru"
  },
  {
    "id":22,
    "name":"jakarta kota",
    "lat":-6.137549,
    "lng":106.814499,
    "ele":null,
    "transit":true,
    "comment1":"merah biru pink (T)",
    "comment2":""
  },
  {
    "id":23,
    "name":"tanjung priok",
    "lat":-6.1108872,
    "lng":106.881138,
    "ele":null,
    "transit":false,
    "comment1":"pink",
    "comment2":""
  },
  {
    "id":24,
    "name":"ancol",
    "lat":-6.128157,
    "lng":106.844908,
    "ele":null,
    "transit":false,
    "comment1":"pink",
    "comment2":""
  },
  {
    "id":25,
    "name":"kampung bandan",
    "lat":-6.132739,
    "lng":106.828442,
    "ele":null,
    "transit":true,
    "comment1":"pink orange (T)",
    "comment2":""
  },
  {
    "id":26,
    "name":"rajawali",
    "lat":-6.145871,
    "lng":106.837073,
    "ele":null,
    "transit":true,
    "comment1":"pink orange (T)",
    "comment2":""
  },
  {
    "id":27,
    "name":"kemayoran",
    "lat":-6.162041,
    "lng":106.84155,
    "ele":null,
    "transit":false,
    "comment1":"orange",
    "comment2":""
  },
  {
    "id":28,
    "name":"pasar senen",
    "lat":-6.175088,
    "lng":106.844835,
    "ele":null,
    "transit":false,
    "comment1":"orange",
    "comment2":""
  },
  {
    "id":29,
    "name":"gang sentiong",
    "lat":-6.185947,
    "lng":106.850612,
    "ele":null,
    "transit":false,
    "comment1":"orange",
    "comment2":""
  },
  {
    "id":30,
    "name":"kramat",
    "lat":-6.193873,
    "lng":106.856699,
    "ele":null,
    "transit":false,
    "comment1":"orange",
    "comment2":""
  },
  {
    "id":31,
    "name":"pondok jati",
    "lat":-6.209337,
    "lng":106.862412,
    "ele":null,
    "transit":false,
    "comment1":"orange",
    "comment2":""
  },
  {
    "id":32,
    "name":"jatinegara",
    "lat":-6.215268,
    "lng":106.870282,
    "ele":null,
    "transit":true,
    "comment1":"orange biru (T)",
    "comment2":""
  },
  {
    "id":33,
    "name":"cipinang",
    "lat":-6.213997,
    "lng":106.886009,
    "ele":null,
    "transit":false,
    "comment1":"biru",
    "comment2":""
  },
  {
    "id":34,
    "name":"klender",
    "lat":-6.213309,
    "lng":106.899824,
    "ele":null,
    "transit":false,
    "comment1":"biru",
    "comment2":""
  },
  {
    "id":35,
    "name":"buaran",
    "lat":-6.216183,
    "lng":106.928184,
    "ele":null,
    "transit":false,
    "comment1":"biru",
    "comment2":""
  },
  {
    "id":36,
    "name":"klender baru",
    "lat":-6.217619,
    "lng":106.939988,
    "ele":null,
    "transit":false,
    "comment1":"biru",
    "comment2":""
  },
  {
    "id":37,
    "name":"cakung",
    "lat":-6.219193,
    "lng":106.952532,
    "ele":null,
    "transit":false,
    "comment1":"biru",
    "comment2":""
  },
  {
    "id":38,
    "name":"kranji",
    "lat":-6.223892,
    "lng":106.978844,
    "ele":null,
    "transit":false,
    "comment1":"biru",
    "comment2":""
  },
  {
    "id":39,
    "name":"bekasi",
    "lat":-6.235912,
    "lng":106.998548,
    "ele":null,
    "transit":false,
    "comment1":"biru",
    "comment2":""
  },
  {
    "id":40,
    "name":"mampang",
    "lat":-6.206029,
    "lng":106.840062,
    "ele":null,
    "transit":false,
    "comment1":"orange",
    "comment2":""
  },
  {
    "id":41,
    "name":"sudirman",
    "lat":-6.202397,
    "lng":106.823487,
    "ele":null,
    "transit":false,
    "comment1":"orange",
    "comment2":""
  },
  {
    "id":42,
    "name":"karet",
    "lat":-6.200903,
    "lng":106.816524,
    "ele":null,
    "transit":false,
    "comment1":"orange",
    "comment2":""
  },
  {
    "id":43,
    "name":"tanah abang",
    "lat":-6.185837,
    "lng":106.811058,
    "ele":null,
    "transit":true,
    "comment1":"orange hijau (T)",
    "comment2":""
  },
  {
    "id":44,
    "name":"duri",
    "lat":-6.155982,
    "lng":106.801331,
    "ele":null,
    "transit":true,
    "comment1":"orange cokelat (T)",
    "comment2":""
  },
  {
    "id":45,
    "name":"angke",
    "lat":-6.144409,
    "lng":106.800725,
    "ele":null,
    "transit":false,
    "comment1":"orange",
    "comment2":""
  },
  {
    "id":46,
    "name":"tangerang",
    "lat":-6.17635,
    "lng":106.629961,
    "ele":null,
    "transit":false,
    "comment1":"cokelat",
    "comment2":""
  },
  {
    "id":47,
    "name":"batuceper",
    "lat":-6.172174,
    "lng":106.664868,
    "ele":null,
    "transit":false,
    "comment1":"cokelat",
    "comment2":""
  },
  {
    "id":48,
    "name":"tanah tinggi",
    "lat":-6.171569,
    "lng":106.64846,
    "ele":null,
    "transit":false,
    "comment1":"cokelat",
    "comment2":""
  },
  {
    "id":49,
    "name":"poris",
    "lat":-6.1698519,
    "lng":106.6804866,
    "ele":null,
    "transit":false,
    "comment1":"cokelat",
    "comment2":""
  },
  {
    "id":50,
    "name":"rawa buaya",
    "lat":-6.163279,
    "lng":106.7237716,
    "ele":null,
    "transit":false,
    "comment1":"cokelat",
    "comment2":""
  },
  {
    "id":51,
    "name":"taman kota",
    "lat":-6.15717,
    "lng":106.7579,
    "ele":null,
    "transit":false,
    "comment1":"cokelat",
    "comment2":""
  },
  {
    "id":52,
    "name":"pesing",
    "lat":-6.161373,
    "lng":106.771528,
    "ele":null,
    "transit":false,
    "comment1":"cokelat",
    "comment2":""
  },
  {
    "id":53,
    "name":"grogol",
    "lat":-6.166575,
    "lng":106.790457,
    "ele":null,
    "transit":false,
    "comment1":"cokelat",
    "comment2":""
  },
  {
    "id":54,
    "name":"palmerah",
    "lat":-6.207372,
    "lng":106.797026,
    "ele":null,
    "transit":false,
    "comment1":"hijau",
    "comment2":""
  },
  {
    "id":55,
    "name":"kebayoran",
    "lat":-6.231325,
    "lng":106.785392,
    "ele":null,
    "transit":false,
    "comment1":"hijau",
    "comment2":""
  },
  {
    "id":56,
    "name":"pondok ranji",
    "lat":-6.2765652,
    "lng":106.7444978,
    "ele":null,
    "transit":false,
    "comment1":"hijau",
    "comment2":""
  },
  {
    "id":57,
    "name":"jurung mangu",
    "lat":-6.288853,
    "lng":106.728763,
    "ele":null,
    "transit":false,
    "comment1":"hijau",
    "comment2":""
  },
  {
    "id":58,
    "name":"sudimara",
    "lat":-6.296684,
    "lng":106.712683,
    "ele":null,
    "transit":false,
    "comment1":"hijau",
    "comment2":""
  },
  {
    "id":59,
    "name":"rawa buntu",
    "lat":-6.352693,
    "lng":106.251509,
    "ele":null,
    "transit":false,
    "comment1":"hijau",
    "comment2":""
  },
  {
    "id":60,
    "name":"serpong",
    "lat":-6.320137,
    "lng":106.665599,
    "ele":null,
    "transit":false,
    "comment1":"hijau",
    "comment2":""
  },
  {
    "id":61,
    "name":"cisauk",
    "lat":-6.324692,
    "lng":106.640995,
    "ele":null,
    "transit":false,
    "comment1":"hijau",
    "comment2":""
  },
  {
    "id":62,
    "name":"cicayur",
    "lat":-6.329678,
    "lng":106.618991,
    "ele":null,
    "transit":false,
    "comment1":"hijau",
    "comment2":""
  },
  {
    "id":63,
    "name":"parung panjang",
    "lat":-6.344295,
    "lng":106.569453,
    "ele":null,
    "transit":false,
    "comment1":"hijau",
    "comment2":""
  },
  {
    "id":64,
    "name":"cilejit",
    "lat":-6.354348,
    "lng":106.509587,
    "ele":null,
    "transit":false,
    "comment1":"hijau",
    "comment2":""
  },
  {
    "id":65,
    "name":"daru",
    "lat":-6.338425,
    "lng":106.492739,
    "ele":17,
    "transit":false,
    "comment1":"hijau",
    "comment2":""
  },
  {
    "id":66,
    "name":"tenjo",
    "lat":-6.3273,
    "lng":106.46106,
    "ele":null,
    "transit":false,
    "comment1":"hijau",
    "comment2":""
  },
  {
    "id":67,
    "name":"tiga raksa",
    "lat":-6.328384,
    "lng":106.434681,
    "ele":null,
    "transit":false,
    "comment1":"hijau",
    "comment2":""
  },
  {
    "id":68,
    "name":"cikoya",
    "lat":-6.335667,
    "lng":106.411936,
    "ele":null,
    "transit":false,
    "comment1":"hijau",
    "comment2":""
  },
  {
    "id":69,
    "name":"maja",
    "lat":-6.334674,
    "lng":106.411632,
    "ele":null,
    "transit":false,
    "comment1":"hijau",
    "comment2":""
  },
  {
    "id":70,
    "name":"citeras",
    "lat":-6.334939,
    "lng":106.332691,
    "ele":null,
    "transit":false,
    "comment1":"hijau",
    "comment2":""
  },
  {
    "id":71,
    "name":"rangkas bitung",
    "lat":-6.352693,
    "lng":106.251509,
    "ele":null,
    "transit":false,
    "comment1":"hijau",
    "comment2":""
  }
]
